{"type":"FeatureCollection","features":[{"type":"Feature","id":"sigi 188 farmacie.1","geometry":{"type":"Point","coordinates":[10.9786,45.4417]},"geometry_name":"geom","properties":{"farmacia":1,"denominazi":"S. Zeno","chiave":"6699-6B","indirizzo":"PIAZZA POZZA 6B,\r\n37123 Verona","omogenea":"S. Zeno","quartiere":"S. ZENO","circoscriz":"CENTRO STORICO","url_rel":"modulo3/oggetto.aspx?oggetto=farmacia&id_oggetto=1","tooltip":"1 S. Zeno"},"bbox":[10.9786,45.4417,10.9786,45.4417]},{"type":"Feature","id":"sigi 188 farmacie.2","geometry":{"type":"Point","coordinates":[10.9868,45.4391]},"geometry_name":"geom","properties":{"farmacia":2,"denominazi":"Castelvecchio","chiave":"1009-1","indirizzo":"LARGO DON G. BOSCO 1,\r\n37123 Verona","omogenea":"S. Bernardino","quartiere":"S. ZENO","circoscriz":"CENTRO STORICO","url_rel":"modulo3/oggetto.aspx?oggetto=farmacia&id_oggetto=2","tooltip":"2 Castelvecchio"},"bbox":[10.9868,45.4391,10.9868,45.4391]},{"type":"Feature","id":"sigi 188 farmacie.3","geometry":{"type":"Point","coordinates":[10.9896,45.4349]},"geometry_name":"geom","properties":{"farmacia":3,"denominazi":"Agli Angeli","chiave":"6587-28","indirizzo":"CORSO PORTA NUOVA 28,\r\n37122 Verona","omogenea":"Valverde","quartiere":"CITTADELLA","circoscriz":"CENTRO STORICO","url_rel":"modulo3/oggetto.aspx?oggetto=farmacia&id_oggetto=3","tooltip":"3 Agli Angeli"},"bbox":[10.9896,45.4349,10.9896,45.4349]},{"type":"Feature","id":"sigi 188 farmacie.4","geometry":{"type":"Point","coordinates":[10.9914,45.4382]},"geometry_name":"geom","properties":{"farmacia":5,"denominazi":"Internazionale","chiave":"1050-28","indirizzo":"PIAZZA BRA' 28,\r\n37121 Verona","omogenea":"Valverde","quartiere":"CITTADELLA","circoscriz":"CENTRO STORICO","url_rel":"modulo3/oggetto.aspx?oggetto=farmacia&id_oggetto=5","tooltip":"5 Internazionale"},"bbox":[10.9914,45.4382,10.9914,45.4382]},{"type":"Feature","id":"sigi 188 farmacie.5","geometry":{"type":"Point","coordinates":[10.9911,45.4366]},"geometry_name":"geom","properties":{"farmacia":4,"denominazi":"Linfa","chiave":"6587-27","indirizzo":"CORSO PORTA NUOVA 27,\r\n37122 Verona","omogenea":"Pontiere","quartiere":"CITTADELLA","circoscriz":"CENTRO STORICO","url_rel":"modulo3/oggetto.aspx?oggetto=farmacia&id_oggetto=4","tooltip":"4 Linfa"},"bbox":[10.9911,45.4366,10.9911,45.4366]},{"type":"Feature","id":"sigi 188 farmacie.6","geometry":{"type":"Point","coordinates":[10.9969,45.4379]},"geometry_name":"geom","properties":{"farmacia":6,"denominazi":"S. Fermo","chiave":"7639-40","indirizzo":"STRADONE S. FERMO 40,\r\n37121 Verona","omogenea":"Citta` Antica","quartiere":"CITTA' ANTICA","circoscriz":"CENTRO STORICO","url_rel":"modulo3/oggetto.aspx?oggetto=farmacia&id_oggetto=6","tooltip":"6 S. Fermo"},"bbox":[10.9969,45.4379,10.9969,45.4379]},{"type":"Feature","id":"sigi 188 farmacie.7","geometry":{"type":"Point","coordinates":[10.975,45.3893]},"geometry_name":"geom","properties":{"farmacia":7,"denominazi":"Sacra Famiglia","chiave":"9721-51","indirizzo":"VIA VIGASIO 51,\r\n37135 Verona","omogenea":"Genovesa - Gelmetto","quartiere":"BORGO ROMA","circoscriz":"SUD","url_rel":"modulo3/oggetto.aspx?oggetto=farmacia&id_oggetto=7","tooltip":"7 Sacra Famiglia"},"bbox":[10.975,45.3893,10.975,45.3893]},{"type":"Feature","id":"sigi 188 farmacie.8","geometry":{"type":"Point","coordinates":[10.9658,45.4523]},"geometry_name":"geom","properties":{"farmacia":8,"denominazi":"Dr. Bettini Umberto","chiave":"3326-71","indirizzo":"VIA MARIN FALIERO 71,\r\n37138 Verona","omogenea":"S. Procolo","quartiere":"BORGO MILANO","circoscriz":"OVEST","url_rel":"modulo3/oggetto.aspx?oggetto=farmacia&id_oggetto=8","tooltip":"8 Dr. Bettini Umberto"},"bbox":[10.9658,45.4523,10.9658,45.4523]},{"type":"Feature","id":"sigi 188 farmacie.9","geometry":{"type":"Point","coordinates":[10.9984,45.4414]},"geometry_name":"geom","properties":{"farmacia":9,"denominazi":"Martini di Fiocco Elena","chiave":"8959-9","indirizzo":"VIA STELLA 9,\r\n37121 Verona","omogenea":"Citta` Antica","quartiere":"CITTA' ANTICA","circoscriz":"CENTRO STORICO","url_rel":"modulo3/oggetto.aspx?oggetto=farmacia&id_oggetto=9","tooltip":"9 Martini di Fiocco Elena"},"bbox":[10.9984,45.4414,10.9984,45.4414]},{"type":"Feature","id":"sigi 188 farmacie.10","geometry":{"type":"Point","coordinates":[10.9948,45.4407]},"geometry_name":"geom","properties":{"farmacia":10,"denominazi":"Due Campane","chiave":"4892-52","indirizzo":"VIA MAZZINI 52,\r\n37121 Verona","omogenea":"Citta` Antica","quartiere":"CITTA' ANTICA","circoscriz":"CENTRO STORICO","url_rel":"modulo3/oggetto.aspx?oggetto=farmacia&id_oggetto=10","tooltip":"10 Due Campane"},"bbox":[10.9948,45.4407,10.9948,45.4407]},{"type":"Feature","id":"sigi 188 farmacie.11","geometry":{"type":"Point","coordinates":[10.997,45.4418]},"geometry_name":"geom","properties":{"farmacia":11,"denominazi":"S. Tomio","chiave":"4892-11","indirizzo":"VIA MAZZINI 11,\r\n37121 Verona","omogenea":"Citta` Antica","quartiere":"CITTA' ANTICA","circoscriz":"CENTRO STORICO","url_rel":"modulo3/oggetto.aspx?oggetto=farmacia&id_oggetto=11","tooltip":"11 S. Tomio"},"bbox":[10.997,45.4418,10.997,45.4418]},{"type":"Feature","id":"sigi 188 farmacie.12","geometry":{"type":"Point","coordinates":[10.8993,45.4521]},"geometry_name":"geom","properties":{"farmacia":12,"denominazi":"Capri","chiave":"599-56","indirizzo":"VIA BASSONE 56,\r\n37139 Verona","omogenea":"Basson","quartiere":"S. MASSIMO","circoscriz":"OVEST","url_rel":"modulo3/oggetto.aspx?oggetto=farmacia&id_oggetto=12","tooltip":"12 Capri"},"bbox":[10.8993,45.4521,10.8993,45.4521]},{"type":"Feature","id":"sigi 188 farmacie.13","geometry":{"type":"Point","coordinates":[10.9936,45.4421]},"geometry_name":"geom","properties":{"farmacia":13,"denominazi":"Al Giglio Eredi","chiave":"6573-46","indirizzo":"CORSO PORTA BORSARI 46,\r\n37121 Verona","omogenea":"Citta` Antica","quartiere":"CITTA' ANTICA","circoscriz":"CENTRO STORICO","url_rel":"modulo3/oggetto.aspx?oggetto=farmacia&id_oggetto=13","tooltip":"13 Al Giglio Eredi"},"bbox":[10.9936,45.4421,10.9936,45.4421]},{"type":"Feature","id":"sigi 188 farmacie.14","geometry":{"type":"Point","coordinates":[10.9974,45.4431]},"geometry_name":"geom","properties":{"farmacia":14,"denominazi":"Centrale di Signorini","chiave":"3265-20","indirizzo":"PIAZZA DELLE ERBE 20,\r\n37121 Verona","omogenea":"Citta` Antica","quartiere":"CITTA' ANTICA","circoscriz":"CENTRO STORICO","url_rel":"modulo3/oggetto.aspx?oggetto=farmacia&id_oggetto=14","tooltip":"14 Centrale di Signorini"},"bbox":[10.9974,45.4431,10.9974,45.4431]},{"type":"Feature","id":"sigi 188 farmacie.15","geometry":{"type":"Point","coordinates":[10.971,45.4305]},"geometry_name":"geom","properties":{"farmacia":15,"denominazi":"Palladio","chiave":"137-63","indirizzo":"VIA ALBERE 63,\r\n37138 Verona","omogenea":"Porta Nuova","quartiere":"BORGO MILANO","circoscriz":"OVEST","url_rel":"modulo3/oggetto.aspx?oggetto=farmacia&id_oggetto=15","tooltip":"15 Palladio"},"bbox":[10.971,45.4305,10.971,45.4305]},{"type":"Feature","id":"sigi 188 farmacie.16","geometry":{"type":"Point","coordinates":[10.9706,45.4476]},"geometry_name":"geom","properties":{"farmacia":16,"denominazi":"S. Anna","chiave":"2754-27","indirizzo":"VIA A. DA MOSTO 27,\r\n37138 Verona","omogenea":"Borgo Milano - Centro","quartiere":"BORGO MILANO","circoscriz":"OVEST","url_rel":"modulo3/oggetto.aspx?oggetto=farmacia&id_oggetto=16","tooltip":"16 S. Anna"},"bbox":[10.9706,45.4476,10.9706,45.4476]},{"type":"Feature","id":"sigi 188 farmacie.17","geometry":{"type":"Point","coordinates":[10.941,45.4424]},"geometry_name":"geom","properties":{"farmacia":17,"denominazi":"Dr. Soave Antonio","chiave":"7878-8","indirizzo":"VIA SAN LUCILLO 8,\r\n37139 Verona","omogenea":"S. Massimo - Centro","quartiere":"S. MASSIMO","circoscriz":"OVEST","url_rel":"modulo3/oggetto.aspx?oggetto=farmacia&id_oggetto=17","tooltip":"17 Dr. Soave Antonio"},"bbox":[10.941,45.4424,10.941,45.4424]},{"type":"Feature","id":"sigi 188 farmacie.18","geometry":{"type":"Point","coordinates":[10.9981,45.4443]},"geometry_name":"geom","properties":{"farmacia":18,"denominazi":"S. Anastasia","chiave":"7359-29A","indirizzo":"CORSO S. ANASTASIA 29A,\r\n37121 Verona","omogenea":"Citta` Antica","quartiere":"CITTA' ANTICA","circoscriz":"CENTRO STORICO","url_rel":"modulo3/oggetto.aspx?oggetto=farmacia&id_oggetto=18","tooltip":"18 S. Anastasia"},"bbox":[10.9981,45.4443,10.9981,45.4443]},{"type":"Feature","id":"sigi 188 farmacie.19","geometry":{"type":"Point","coordinates":[10.995,45.4463]},"geometry_name":"geom","properties":{"farmacia":19,"denominazi":"Madonna del Popolo","chiave":"3884-20","indirizzo":"VIA GARIBALDI 20,\r\n37121 Verona","omogenea":"Citta` Antica","quartiere":"CITTA' ANTICA","circoscriz":"CENTRO STORICO","url_rel":"modulo3/oggetto.aspx?oggetto=farmacia&id_oggetto=19","tooltip":"19 Madonna del Popolo"},"bbox":[10.995,45.4463,10.995,45.4463]},{"type":"Feature","id":"sigi 188 farmacie.20","geometry":{"type":"Point","coordinates":[11.0007,45.448]},"geometry_name":"geom","properties":{"farmacia":20,"denominazi":"Ponte Pietra","chiave":"6966-8","indirizzo":"RIGASTE REDENTORE 8,\r\n37129 Verona","omogenea":"S. Giovanni in Valle","quartiere":"VERONETTA","circoscriz":"CENTRO STORICO","url_rel":"modulo3/oggetto.aspx?oggetto=farmacia&id_oggetto=20","tooltip":"20 Ponte Pietra"},"bbox":[11.0007,45.448,11.0007,45.448]},{"type":"Feature","id":"sigi 188 farmacie.21","geometry":{"type":"Point","coordinates":[11.0305,45.4471]},"geometry_name":"geom","properties":{"farmacia":21,"denominazi":"S. Chiara","chiave":"5425-59A","indirizzo":"VIA MONTORIO 59A,\r\n37131 Verona","omogenea":"S. Croce","quartiere":"BORGO VENEZIA","circoscriz":"EST","url_rel":"modulo3/oggetto.aspx?oggetto=farmacia&id_oggetto=21","tooltip":"21 S. Chiara"},"bbox":[11.0305,45.4471,11.0305,45.4471]},{"type":"Feature","id":"sigi 188 farmacie.22","geometry":{"type":"Point","coordinates":[11.004,45.4421]},"geometry_name":"geom","properties":{"farmacia":22,"denominazi":"Al Seminario","chiave":"35-42","indirizzo":"VIA INTERRATO ACQUA MORTA 42,\r\n37129 Verona","omogenea":"Veronetta - centro","quartiere":"VERONETTA","circoscriz":"CENTRO STORICO","url_rel":"modulo3/oggetto.aspx?oggetto=farmacia&id_oggetto=22","tooltip":"22 Al Seminario"},"bbox":[11.004,45.4421,11.004,45.4421]},{"type":"Feature","id":"sigi 188 farmacie.23","geometry":{"type":"Point","coordinates":[11.0086,45.4407]},"geometry_name":"geom","properties":{"farmacia":23,"denominazi":"S. Nazaro","chiave":"5564-56","indirizzo":"VIA MURO PADRI 56,\r\n37129 Verona","omogenea":"Veronetta - centro","quartiere":"VERONETTA","circoscriz":"CENTRO STORICO","url_rel":"modulo3/oggetto.aspx?oggetto=farmacia&id_oggetto=23","tooltip":"23 S. Nazaro"},"bbox":[11.0086,45.4407,11.0086,45.4407]},{"type":"Feature","id":"sigi 188 farmacie.24","geometry":{"type":"Point","coordinates":[11.004,45.4391]},"geometry_name":"geom","properties":{"farmacia":24,"denominazi":"S. Paolo","chiave":"8212-1A","indirizzo":"VIA SAN VITALE 1A,\r\n37129 Verona","omogenea":"Veronetta - centro","quartiere":"VERONETTA","circoscriz":"CENTRO STORICO","url_rel":"modulo3/oggetto.aspx?oggetto=farmacia&id_oggetto=24","tooltip":"24 S. Paolo"},"bbox":[11.004,45.4391,11.004,45.4391]},{"type":"Feature","id":"sigi 188 farmacie.25","geometry":{"type":"Point","coordinates":[11.0125,45.4402]},"geometry_name":"geom","properties":{"farmacia":25,"denominazi":"Alla Concezione","chiave":"8030-71","indirizzo":"VIA S. NAZARO 71,\r\n37129 Verona","omogenea":"Veronetta - centro","quartiere":"VERONETTA","circoscriz":"CENTRO STORICO","url_rel":"modulo3/oggetto.aspx?oggetto=farmacia&id_oggetto=25","tooltip":"25 Alla Concezione"},"bbox":[11.0125,45.4402,11.0125,45.4402]},{"type":"Feature","id":"sigi 188 farmacie.26","geometry":{"type":"Point","coordinates":[11.0199,45.4346]},"geometry_name":"geom","properties":{"farmacia":26,"denominazi":"S. Pancrazio","chiave":"3836-41","indirizzo":"VIA GALILEO GALILEI 41,\r\n37133 Verona","omogenea":"Porto S. Pancrazio - Centro","quartiere":"PORTO S. PANCRAZIO","circoscriz":"SUD-EST","url_rel":"modulo3/oggetto.aspx?oggetto=farmacia&id_oggetto=26","tooltip":"26 S. Pancrazio"},"bbox":[11.0199,45.4346,11.0199,45.4346]},{"type":"Feature","id":"sigi 188 farmacie.27","geometry":{"type":"Point","coordinates":[10.9711,45.4433]},"geometry_name":"geom","properties":{"farmacia":27,"denominazi":"Borgo Milano","chiave":"5054-69","indirizzo":"CORSO MILANO 69,\r\n37138 Verona","omogenea":"Borgo Milano - Centro","quartiere":"BORGO MILANO","circoscriz":"OVEST","url_rel":"modulo3/oggetto.aspx?oggetto=farmacia&id_oggetto=27","tooltip":"27 Borgo Milano"},"bbox":[10.9711,45.4433,10.9711,45.4433]},{"type":"Feature","id":"sigi 188 farmacie.28","geometry":{"type":"Point","coordinates":[10.9875,45.4524]},"geometry_name":"geom","properties":{"farmacia":28,"denominazi":"Padovani Dr. Giancarlo","chiave":"4657-39","indirizzo":"VIA GOFFREDO MAMELI 39,\r\n37126 Verona","omogenea":"Arsenale","quartiere":"BORGO TRENTO","circoscriz":"NORD-OVEST","url_rel":"modulo3/oggetto.aspx?oggetto=farmacia&id_oggetto=28","tooltip":"28 Padovani Dr. Giancarlo"},"bbox":[10.9875,45.4524,10.9875,45.4524]},{"type":"Feature","id":"sigi 188 farmacie.29","geometry":{"type":"Point","coordinates":[10.9889,45.4453]},"geometry_name":"geom","properties":{"farmacia":29,"denominazi":"Coghi","chiave":"6867-11","indirizzo":"VIA QUATTRO NOVEMBRE 11,\r\n37126 Verona","omogenea":"Arsenale","quartiere":"BORGO TRENTO","circoscriz":"NORD-OVEST","url_rel":"modulo3/oggetto.aspx?oggetto=farmacia&id_oggetto=29","tooltip":"29 Coghi"},"bbox":[10.9889,45.4453,10.9889,45.4453]},{"type":"Feature","id":"sigi 188 farmacie.30","geometry":{"type":"Point","coordinates":[10.9444,45.447]},"geometry_name":"geom","properties":{"farmacia":30,"denominazi":"S. Massimo","chiave":"8923-4","indirizzo":"VIA STANGA 4,\r\n37139 Verona","omogenea":"Croce bianca","quartiere":"S. MASSIMO","circoscriz":"OVEST","url_rel":"modulo3/oggetto.aspx?oggetto=farmacia&id_oggetto=30","tooltip":"30 S. Massimo"},"bbox":[10.9444,45.447,10.9444,45.447]},{"type":"Feature","id":"sigi 188 farmacie.31","geometry":{"type":"Point","coordinates":[11.0419,45.434]},"geometry_name":"geom","properties":{"farmacia":31,"denominazi":"Dr. Lio Giuliano","chiave":"9458-169","indirizzo":"VIA UNITA' D'ITALIA 169,\r\n37132 Verona","omogenea":"S. Michele centro","quartiere":"S. MICHELE","circoscriz":"SUD-EST","url_rel":"modulo3/oggetto.aspx?oggetto=farmacia&id_oggetto=31","tooltip":"31 Dr. Lio Giuliano"},"bbox":[11.0419,45.434,11.0419,45.434]},{"type":"Feature","id":"sigi 188 farmacie.32","geometry":{"type":"Point","coordinates":[11.0429,45.4337]},"geometry_name":"geom","properties":{"farmacia":32,"denominazi":"Balanza Dr. Leopoldo","chiave":"9458-120","indirizzo":"VIA UNITA' D'ITALIA 120,\r\n37132 Verona","omogenea":"S. Michele centro","quartiere":"S. MICHELE","circoscriz":"SUD-EST","url_rel":"modulo3/oggetto.aspx?oggetto=farmacia&id_oggetto=32","tooltip":"32 Balanza Dr. Leopoldo"},"bbox":[11.0429,45.4337,11.0429,45.4337]},{"type":"Feature","id":"sigi 188 farmacie.33","geometry":{"type":"Point","coordinates":[11.0191,45.4444]},"geometry_name":"geom","properties":{"farmacia":33,"denominazi":"S. Antonio","chiave":"3500-66","indirizzo":"VIA COL. GIOVANNI FINCATO 66,\r\n37131 Verona","omogenea":"Borgo Venezia - Centro","quartiere":"BORGO VENEZIA","circoscriz":"EST","url_rel":"modulo3/oggetto.aspx?oggetto=farmacia&id_oggetto=33","tooltip":"33 S. Antonio"},"bbox":[11.0191,45.4444,11.0191,45.4444]},{"type":"Feature","id":"sigi 188 farmacie.34","geometry":{"type":"Point","coordinates":[11.0191,45.4405]},"geometry_name":"geom","properties":{"farmacia":34,"denominazi":"S. Giuseppe","chiave":"8879-2","indirizzo":"VIALE SPOLVERINI 2,\r\n37131 Verona","omogenea":"Borgo Venezia - Centro","quartiere":"BORGO VENEZIA","circoscriz":"EST","url_rel":"modulo3/oggetto.aspx?oggetto=farmacia&id_oggetto=34","tooltip":"34 S. Giuseppe"},"bbox":[11.0191,45.4405,11.0191,45.4405]},{"type":"Feature","id":"sigi 188 farmacie.35","geometry":{"type":"Point","coordinates":[10.9553,45.422]},"geometry_name":"geom","properties":{"farmacia":35,"denominazi":"S. Lucia","chiave":"4687-62","indirizzo":"VIA MANTOVANA 62,\r\n37137 Verona","omogenea":"S. Lucia - zona orig.","quartiere":"S. LUCIA","circoscriz":"SUD-OVEST","url_rel":"modulo3/oggetto.aspx?oggetto=farmacia&id_oggetto=35","tooltip":"35 S. Lucia"},"bbox":[10.9553,45.422,10.9553,45.422]},{"type":"Feature","id":"sigi 188 farmacie.36","geometry":{"type":"Point","coordinates":[10.9901,45.415]},"geometry_name":"geom","properties":{"farmacia":36,"denominazi":"S. Teresa","chiave":"2118-13","indirizzo":"VIA CENTRO 13,\r\n37135 Verona","omogenea":"Tombetta","quartiere":"BORGO ROMA","circoscriz":"SUD","url_rel":"modulo3/oggetto.aspx?oggetto=farmacia&id_oggetto=36","tooltip":"36 S. Teresa"},"bbox":[10.9901,45.415,10.9901,45.415]},{"type":"Feature","id":"sigi 188 farmacie.37","geometry":{"type":"Point","coordinates":[10.9879,45.4113]},"geometry_name":"geom","properties":{"farmacia":37,"denominazi":"Roma","chiave":"2118-53","indirizzo":"VIA CENTRO 53,\r\n37135 Verona","omogenea":"Tomba","quartiere":"BORGO ROMA","circoscriz":"SUD","url_rel":"modulo3/oggetto.aspx?oggetto=farmacia&id_oggetto=37","tooltip":"37 Roma"},"bbox":[10.9879,45.4113,10.9879,45.4113]},{"type":"Feature","id":"sigi 188 farmacie.38","geometry":{"type":"Point","coordinates":[11.0628,45.4578]},"geometry_name":"geom","properties":{"farmacia":38,"denominazi":"All' Albaro","chiave":"1230-10","indirizzo":"PIAZZALE BUCCARI 10,\r\n37141 Verona","omogenea":"Montorio - Centro","quartiere":"MONTORIO","circoscriz":"NORD-EST","url_rel":"modulo3/oggetto.aspx?oggetto=farmacia&id_oggetto=38","tooltip":"38 All' Albaro"},"bbox":[11.0628,45.4578,11.0628,45.4578]},{"type":"Feature","id":"sigi 188 farmacie.39","geometry":{"type":"Point","coordinates":[11.0154,45.4723]},"geometry_name":"geom","properties":{"farmacia":39,"denominazi":"Bellamoli Dr. Sandro","chiave":"6363-99","indirizzo":"VIA POIANO 99,\r\n37142 Verona","omogenea":"Poiano","quartiere":"QUINTO","circoscriz":"NORD-EST","url_rel":"modulo3/oggetto.aspx?oggetto=farmacia&id_oggetto=39","tooltip":"39 Bellamoli Dr. Sandro"},"bbox":[11.0154,45.4723,11.0154,45.4723]},{"type":"Feature","id":"sigi 188 farmacie.40","geometry":{"type":"Point","coordinates":[10.9953,45.3824]},"geometry_name":"geom","properties":{"farmacia":40,"denominazi":"Dei Santi","chiave":"629-59","indirizzo":"VIA BELFIORE 59,\r\n37135 Verona","omogenea":"Ca` di David - Centro","quartiere":"CA' DI DAVID","circoscriz":"SUD","url_rel":"modulo3/oggetto.aspx?oggetto=farmacia&id_oggetto=40","tooltip":"40 Dei Santi"},"bbox":[10.9953,45.3824,10.9953,45.3824]},{"type":"Feature","id":"sigi 188 farmacie.41","geometry":{"type":"Point","coordinates":[10.9475,45.4776]},"geometry_name":"geom","properties":{"farmacia":41,"denominazi":"Soprana Dr.ssa Alessandra","chiave":"8941-6","indirizzo":"LARGO STAZIONE VECCHIA 6,\r\n37124 Verona","omogenea":"Parona","quartiere":"PARONA","circoscriz":"NORD-OVEST","url_rel":"modulo3/oggetto.aspx?oggetto=farmacia&id_oggetto=41","tooltip":"41 Soprana Dr.ssa Alessandra"},"bbox":[10.9475,45.4776,10.9475,45.4776]},{"type":"Feature","id":"sigi 188 farmacie.42","geometry":{"type":"Point","coordinates":[10.9765,45.4211]},"geometry_name":"geom","properties":{"farmacia":42,"denominazi":"La Mia Farmacia","chiave":"5546-53","indirizzo":"VIA GIOVANNA MURARI BRA' 53,\r\n37136 Verona","omogenea":"Golosine - Nord","quartiere":"GOLOSINE","circoscriz":"SUD-OVEST","url_rel":"modulo3/oggetto.aspx?oggetto=farmacia&id_oggetto=42","tooltip":"42 La Mia Farmacia"},"bbox":[10.9765,45.4211,10.9765,45.4211]},{"type":"Feature","id":"sigi 188 farmacie.43","geometry":{"type":"Point","coordinates":[11.0262,45.4403]},"geometry_name":"geom","properties":{"farmacia":43,"denominazi":"Ceccherelli Dr.","chiave":"6313-51A","indirizzo":"VIA ANTONIO PISANO 51A,\r\n37131 Verona","omogenea":"Borgo Venezia - Centro","quartiere":"BORGO VENEZIA","circoscriz":"EST","url_rel":"modulo3/oggetto.aspx?oggetto=farmacia&id_oggetto=43","tooltip":"43 Ceccherelli Dr."},"bbox":[11.0262,45.4403,11.0262,45.4403]},{"type":"Feature","id":"sigi 188 farmacie.44","geometry":{"type":"Point","coordinates":[10.9886,45.469]},"geometry_name":"geom","properties":{"farmacia":44,"denominazi":"Borgo Antico - Pallaro (Avesa)","chiave":"407-1","indirizzo":"PIAZZA AVESA 1,\r\n37127 Verona","omogenea":"Avesa - Centro","quartiere":"AVESA","circoscriz":"NORD-OVEST","url_rel":"modulo3/oggetto.aspx?oggetto=farmacia&id_oggetto=44","tooltip":"44 Borgo Antico - Pallaro (Avesa)"},"bbox":[10.9886,45.469,10.9886,45.469]},{"type":"Feature","id":"sigi 188 farmacie.45","geometry":{"type":"Point","coordinates":[10.9455,45.4391]},"geometry_name":"geom","properties":{"farmacia":45,"denominazi":"Comunale San Massimo","chiave":"7144-16","indirizzo":"VIA BENIAMINO ROMAGNOLI 16,\r\n37139 Verona","omogenea":"S. Massimo - Centro","quartiere":"S. MASSIMO","circoscriz":"OVEST","url_rel":"modulo3/oggetto.aspx?oggetto=farmacia&id_oggetto=45","tooltip":"45 Comunale San Massimo"},"bbox":[10.9455,45.4391,10.9455,45.4391]},{"type":"Feature","id":"sigi 188 farmacie.46","geometry":{"type":"Point","coordinates":[11.0229,45.4489]},"geometry_name":"geom","properties":{"farmacia":46,"denominazi":"Marchiori Dr. Enzo","chiave":"9757-28","indirizzo":"VIA VILLA COZZA 28,\r\n37131 Verona","omogenea":"S. Croce","quartiere":"BORGO VENEZIA","circoscriz":"EST","url_rel":"modulo3/oggetto.aspx?oggetto=farmacia&id_oggetto=46","tooltip":"46 Marchiori Dr. Enzo"},"bbox":[11.0229,45.4489,11.0229,45.4489]},{"type":"Feature","id":"sigi 188 farmacie.47","geometry":{"type":"Point","coordinates":[10.9544,45.4197]},"geometry_name":"geom","properties":{"farmacia":47,"denominazi":"Realdon Dr. Gian Domenico","chiave":"9763-48","indirizzo":"VIA VILLAFRANCA 48,\r\n37137 Verona","omogenea":"S. Lucia - zona orig.","quartiere":"S. LUCIA","circoscriz":"SUD-OVEST","url_rel":"modulo3/oggetto.aspx?oggetto=farmacia&id_oggetto=47","tooltip":"47 Realdon Dr. Gian Domenico"},"bbox":[10.9544,45.4197,10.9544,45.4197]},{"type":"Feature","id":"sigi 188 farmacie.48","geometry":{"type":"Point","coordinates":[10.9852,45.4064]},"geometry_name":"geom","properties":{"farmacia":48,"denominazi":"Comunale Tomba","chiave":"2118-237","indirizzo":"VIA CENTRO 237,\r\n37135 Verona","omogenea":"Tomba","quartiere":"BORGO ROMA","circoscriz":"SUD","url_rel":"modulo3/oggetto.aspx?oggetto=farmacia&id_oggetto=48","tooltip":"48 Comunale Tomba"},"bbox":[10.9852,45.4064,10.9852,45.4064]},{"type":"Feature","id":"sigi 188 farmacie.49","geometry":{"type":"Point","coordinates":[11.0495,45.4289]},"geometry_name":"geom","properties":{"farmacia":49,"denominazi":"Comunale Madonna di Campagna","chiave":"7327-259","indirizzo":"VIA ANTONIO SALIERI 259,\r\n37132 Verona","omogenea":"Madonna di campagna","quartiere":"S. MICHELE","circoscriz":"SUD-EST","url_rel":"modulo3/oggetto.aspx?oggetto=farmacia&id_oggetto=49","tooltip":"49 Comunale Madonna di Campagna"},"bbox":[11.0495,45.4289,11.0495,45.4289]},{"type":"Feature","id":"sigi 188 farmacie.50","geometry":{"type":"Point","coordinates":[10.9771,45.4599]},"geometry_name":"geom","properties":{"farmacia":50,"denominazi":"Comunale Cadore","chiave":"6351-28A","indirizzo":"VIA ALESSANDRO POERIO 28A,\r\n37124 Verona","omogenea":"Ponte Crencano - Est","quartiere":"PONTE CRENCANO","circoscriz":"NORD-OVEST","url_rel":"modulo3/oggetto.aspx?oggetto=farmacia&id_oggetto=50","tooltip":"50 Comunale Cadore"},"bbox":[10.9771,45.4599,10.9771,45.4599]},{"type":"Feature","id":"sigi 188 farmacie.51","geometry":{"type":"Point","coordinates":[10.9714,45.4331]},"geometry_name":"geom","properties":{"farmacia":51,"denominazi":"Comunale Olimpia","chiave":"5912-61","indirizzo":"VIALE ANDREA PALLADIO 61,\r\n37138 Verona","omogenea":"Stadio","quartiere":"BORGO MILANO","circoscriz":"OVEST","url_rel":"modulo3/oggetto.aspx?oggetto=farmacia&id_oggetto=51","tooltip":"51 Comunale Olimpia"},"bbox":[10.9714,45.4331,10.9714,45.4331]},{"type":"Feature","id":"sigi 188 farmacie.52","geometry":{"type":"Point","coordinates":[10.9466,45.4582]},"geometry_name":"geom","properties":{"farmacia":52,"denominazi":"Comunale Chievo","chiave":"95-104","indirizzo":"VIA AEROPORTO ANGELO BERARDI 104,\r\n37139 Verona","omogenea":"Chievo","quartiere":"BORGO MILANO","circoscriz":"OVEST","url_rel":"modulo3/oggetto.aspx?oggetto=farmacia&id_oggetto=52","tooltip":"52 Comunale Chievo"},"bbox":[10.9466,45.4582,10.9466,45.4582]},{"type":"Feature","id":"sigi 188 farmacie.53","geometry":{"type":"Point","coordinates":[10.9753,45.4653]},"geometry_name":"geom","properties":{"farmacia":53,"denominazi":"Comunale San Rocco","chiave":"3299-31","indirizzo":"VIA FABBRICATO SCOLASTICO 31,\r\n37125 Verona","omogenea":"Quinzano - Centro","quartiere":"QUINZANO","circoscriz":"NORD-OVEST","url_rel":"modulo3/oggetto.aspx?oggetto=farmacia&id_oggetto=53","tooltip":"53 Comunale San Rocco"},"bbox":[10.9753,45.4653,10.9753,45.4653]},{"type":"Feature","id":"sigi 188 farmacie.54","geometry":{"type":"Point","coordinates":[10.9854,45.4342]},"geometry_name":"geom","properties":{"farmacia":54,"denominazi":"Comunale Grattacielo","chiave":"742-7","indirizzo":"VIA FRANCESCO BERNI 7,\r\n37122 Verona","omogenea":"Valverde","quartiere":"CITTADELLA","circoscriz":"CENTRO STORICO","url_rel":"modulo3/oggetto.aspx?oggetto=farmacia&id_oggetto=54","tooltip":"54 Comunale Grattacielo"},"bbox":[10.9854,45.4342,10.9854,45.4342]},{"type":"Feature","id":"sigi 188 farmacie.55","geometry":{"type":"Point","coordinates":[10.9799,45.4494]},"geometry_name":"geom","properties":{"farmacia":55,"denominazi":"Ponte Catena","chiave":"2921-6B","indirizzo":"VIA VASCO DE GAMA 6B,\r\n37138 Verona","omogenea":"Navigatori","quartiere":"BORGO MILANO","circoscriz":"OVEST","url_rel":"modulo3/oggetto.aspx?oggetto=farmacia&id_oggetto=55","tooltip":"55 Ponte Catena"},"bbox":[10.9799,45.4494,10.9799,45.4494]},{"type":"Feature","id":"sigi 188 farmacie.56","geometry":{"type":"Point","coordinates":[10.9877,45.4486]},"geometry_name":"geom","properties":{"farmacia":56,"denominazi":"Martari Eredi","chiave":"5060-22","indirizzo":"VIA DEI MILLE 22,\r\n37126 Verona","omogenea":"Arsenale","quartiere":"BORGO TRENTO","circoscriz":"NORD-OVEST","url_rel":"modulo3/oggetto.aspx?oggetto=farmacia&id_oggetto=56","tooltip":"56 Martari Eredi"},"bbox":[10.9877,45.4486,10.9877,45.4486]},{"type":"Feature","id":"sigi 188 farmacie.57","geometry":{"type":"Point","coordinates":[10.9921,45.4504]},"geometry_name":"geom","properties":{"farmacia":57,"denominazi":"Burri Dr. Umberto","chiave":"4657-4","indirizzo":"VIA GOFFREDO MAMELI 4,\r\n37126 Verona","omogenea":"Cesiolo","quartiere":"BORGO TRENTO","circoscriz":"NORD-OVEST","url_rel":"modulo3/oggetto.aspx?oggetto=farmacia&id_oggetto=57","tooltip":"57 Burri Dr. Umberto"},"bbox":[10.9921,45.4504,10.9921,45.4504]},{"type":"Feature","id":"sigi 188 farmacie.58","geometry":{"type":"Point","coordinates":[11.0163,45.4442]},"geometry_name":"geom","properties":{"farmacia":58,"denominazi":"Fongaro Dr. Sergio","chiave":"2285-11","indirizzo":"VIA CARLO CIPOLLA 11,\r\n37131 Verona","omogenea":"Biondella","quartiere":"BORGO VENEZIA","circoscriz":"EST","url_rel":"modulo3/oggetto.aspx?oggetto=farmacia&id_oggetto=58","tooltip":"58 Fongaro Dr. Sergio"},"bbox":[11.0163,45.4442,11.0163,45.4442]},{"type":"Feature","id":"sigi 188 farmacie.59","geometry":{"type":"Point","coordinates":[10.994,45.411]},"geometry_name":"geom","properties":{"farmacia":59,"denominazi":"Bacchini S.N.C.","chiave":"4065-23A","indirizzo":"VIA BARTOLOMEO GIULIARI 23A,\r\n37134 Verona","omogenea":"I^ Maggio","quartiere":"BORGO ROMA","circoscriz":"SUD","url_rel":"modulo3/oggetto.aspx?oggetto=farmacia&id_oggetto=59","tooltip":"59 Bacchini S.N.C."},"bbox":[10.994,45.411,10.994,45.411]},{"type":"Feature","id":"sigi 188 farmacie.60","geometry":{"type":"Point","coordinates":[10.9645,45.4181]},"geometry_name":"geom","properties":{"farmacia":60,"denominazi":"Comunale Golosine","chiave":"4092-123","indirizzo":"VIA GOLOSINE 123,\r\n37136 Verona","omogenea":"Golosine - Sud","quartiere":"GOLOSINE","circoscriz":"SUD-OVEST","url_rel":"modulo3/oggetto.aspx?oggetto=farmacia&id_oggetto=60","tooltip":"60 Comunale Golosine"},"bbox":[10.9645,45.4181,10.9645,45.4181]},{"type":"Feature","id":"sigi 188 farmacie.61","geometry":{"type":"Point","coordinates":[10.958,45.4494]},"geometry_name":"geom","properties":{"farmacia":61,"denominazi":"Comunale Borgo Nuovo","chiave":"8563-47","indirizzo":"VIA SELINUNTE 47,\r\n37138 Verona","omogenea":"Borgo Nuovo","quartiere":"BORGO MILANO","circoscriz":"OVEST","url_rel":"modulo3/oggetto.aspx?oggetto=farmacia&id_oggetto=61","tooltip":"61 Comunale Borgo Nuovo"},"bbox":[10.958,45.4494,10.958,45.4494]},{"type":"Feature","id":"sigi 188 farmacie.62","geometry":{"type":"Point","coordinates":[11.0187,45.4932]},"geometry_name":"geom","properties":{"farmacia":62,"denominazi":"Comunale Quinto","chiave":"9523-85B","indirizzo":"VIA VALPANTENA 85B,\r\n37142 Verona","omogenea":"Quinto - Centro","quartiere":"QUINTO","circoscriz":"NORD-EST","url_rel":"modulo3/oggetto.aspx?oggetto=farmacia&id_oggetto=62","tooltip":"62 Comunale Quinto"},"bbox":[11.0187,45.4932,11.0187,45.4932]},{"type":"Feature","id":"sigi 188 farmacie.63","geometry":{"type":"Point","coordinates":[11.0014,45.3826]},"geometry_name":"geom","properties":{"farmacia":63,"denominazi":"Comunale Ca' di David","chiave":"1293-3","indirizzo":"VIA CA' DI APRILI 3,\r\n37135 Verona","omogenea":"Ca` di David - Centro","quartiere":"CA' DI DAVID","circoscriz":"SUD","url_rel":"modulo3/oggetto.aspx?oggetto=farmacia&id_oggetto=63","tooltip":"63 Comunale Ca' di David"},"bbox":[11.0014,45.3826,11.0014,45.3826]},{"type":"Feature","id":"sigi 188 farmacie.64","geometry":{"type":"Point","coordinates":[10.966,45.444]},"geometry_name":"geom","properties":{"farmacia":64,"denominazi":"S. Marco","chiave":"5054-143","indirizzo":"CORSO MILANO 143,\r\n37138 Verona","omogenea":"Borgo Milano - Centro","quartiere":"BORGO MILANO","circoscriz":"OVEST","url_rel":"modulo3/oggetto.aspx?oggetto=farmacia&id_oggetto=64","tooltip":"64 S. Marco"},"bbox":[10.966,45.444,10.966,45.444]},{"type":"Feature","id":"sigi 188 farmacie.65","geometry":{"type":"Point","coordinates":[11.0009,45.4527]},"geometry_name":"geom","properties":{"farmacia":65,"denominazi":"Donaduzzi Dr. Giovanni","chiave":"4781-19A","indirizzo":"VIA MARSALA 19A,\r\n37128 Verona","omogenea":"Valdonega","quartiere":"VALDONEGA","circoscriz":"NORD-OVEST","url_rel":"modulo3/oggetto.aspx?oggetto=farmacia&id_oggetto=65","tooltip":"65 Donaduzzi Dr. Giovanni"},"bbox":[11.0009,45.4527,11.0009,45.4527]},{"type":"Feature","id":"sigi 188 farmacie.66","geometry":{"type":"Point","coordinates":[10.9992,45.4121]},"geometry_name":"geom","properties":{"farmacia":66,"denominazi":"Comunale Palazzina","chiave":"7794-22","indirizzo":"VIA SAN GIOVANNI LUPATOTO 22,\r\n37134 Verona","omogenea":"Polidore","quartiere":"BORGO ROMA","circoscriz":"SUD","url_rel":"modulo3/oggetto.aspx?oggetto=farmacia&id_oggetto=66","tooltip":"66 Comunale Palazzina"},"bbox":[10.9992,45.4121,10.9992,45.4121]},{"type":"Feature","id":"sigi 188 farmacie.67","geometry":{"type":"Point","coordinates":[10.9624,45.4174]},"geometry_name":"geom","properties":{"farmacia":67,"denominazi":"Armani","chiave":"9030-11","indirizzo":"VIA TANARO 11,\r\n37136 Verona","omogenea":"Golosine - Sud","quartiere":"GOLOSINE","circoscriz":"SUD-OVEST","url_rel":"modulo3/oggetto.aspx?oggetto=farmacia&id_oggetto=67","tooltip":"67 Armani"},"bbox":[10.9624,45.4174,10.9624,45.4174]},{"type":"Feature","id":"sigi 188 farmacie.68","geometry":{"type":"Point","coordinates":[11.052,45.4328]},"geometry_name":"geom","properties":{"farmacia":68,"denominazi":"Giarolo Dr. Mario","chiave":"4170-5","indirizzo":"VIA ANTONIO GUGLIELMI 5,\r\n37132 Verona","omogenea":"Frugose","quartiere":"S. MICHELE","circoscriz":"SUD-EST","url_rel":"modulo3/oggetto.aspx?oggetto=farmacia&id_oggetto=68","tooltip":"68 Giarolo Dr. Mario"},"bbox":[11.052,45.4328,11.052,45.4328]},{"type":"Feature","id":"sigi 188 farmacie.69","geometry":{"type":"Point","coordinates":[10.9665,45.4404]},"geometry_name":"geom","properties":{"farmacia":71,"denominazi":"Farmacia dell'Immacolata","chiave":"9001-3","indirizzo":"VIA DON L. STURZO 3,\r\n37138 Verona","omogenea":"Borgo Milano - Centro","quartiere":"BORGO MILANO","circoscriz":"OVEST","url_rel":"modulo3/oggetto.aspx?oggetto=farmacia&id_oggetto=71","tooltip":"71 Farmacia dell'Immacolata"},"bbox":[10.9665,45.4404,10.9665,45.4404]},{"type":"Feature","id":"sigi 188 farmacie.70","geometry":{"type":"Point","coordinates":[10.9716,45.4509]},"geometry_name":"geom","properties":{"farmacia":70,"denominazi":"Farmacia Pancaldo di Dr.ssa Luisa Bonetta","chiave":"5942-34","indirizzo":"VIA LEONE PANCALDO 34,\r\n37138 Verona","omogenea":"Navigatori","quartiere":"BORGO MILANO","circoscriz":"OVEST","url_rel":"modulo3/oggetto.aspx?oggetto=farmacia&id_oggetto=70","tooltip":"70 Farmacia Pancaldo di Dr.ssa Luisa Bonetta"},"bbox":[10.9716,45.4509,10.9716,45.4509]},{"type":"Feature","id":"sigi 188 farmacie.71","geometry":{"type":"Point","coordinates":[11.0344,45.4965]},"geometry_name":"geom","properties":{"farmacia":76,"denominazi":"Pantheon","chiave":"2389-1C","indirizzo":"VIA DELLA COLLINA 1C,\r\n37142 Verona","omogenea":"S. Maria in Stelle - Centro","quartiere":"S. MARIA IN STELLE","circoscriz":"NORD-EST","url_rel":"modulo3/oggetto.aspx?oggetto=farmacia&id_oggetto=76","tooltip":"76 Pantheon"},"bbox":[11.0344,45.4965,11.0344,45.4965]},{"type":"Feature","id":"sigi 188 farmacie.72","geometry":{"type":"Point","coordinates":[11.0347,45.4575]},"geometry_name":"geom","properties":{"farmacia":75,"denominazi":"San Felice","chiave":"676-57","indirizzo":"VIA BELVEDERE 57,\r\n37131 Verona","omogenea":"S. Felice extra","quartiere":"BORGO VENEZIA","circoscriz":"EST","url_rel":"modulo3/oggetto.aspx?oggetto=farmacia&id_oggetto=75","tooltip":"75 San Felice"},"bbox":[11.0347,45.4575,11.0347,45.4575]},{"type":"Feature","id":"sigi 188 farmacie.73","geometry":{"type":"Point","coordinates":[10.9314,45.4069]},"geometry_name":"geom","properties":{"farmacia":72,"denominazi":"Madonna della Salute s.n.c. dei dottori Ermanno Forgione e Maria Teresa Forgione","chiave":"4687-127B","indirizzo":"VIA MANTOVANA 127B,\r\n37137 Verona","omogenea":"Quadrante Nord-Est","quartiere":"S. LUCIA","circoscriz":"SUD-OVEST","url_rel":"modulo3/oggetto.aspx?oggetto=farmacia&id_oggetto=72","tooltip":"72 Madonna della Salute s.n.c. dei dottori Ermanno Forgione e Maria Teresa Forgione"},"bbox":[10.9314,45.4069,10.9314,45.4069]},{"type":"Feature","id":"sigi 188 farmacie.74","geometry":{"type":"Point","coordinates":[10.9469,45.4337]},"geometry_name":"geom","properties":{"farmacia":69,"denominazi":"Farmacia XXIV Giugno","chiave":"9613-32A","indirizzo":"VIA VENTIQUATTRO GIUGNO 32A,\r\n37139 Verona","omogenea":"S. Massimo - Centro","quartiere":"S. MASSIMO","circoscriz":"OVEST","url_rel":"modulo3/oggetto.aspx?oggetto=farmacia&id_oggetto=69","tooltip":"69 Farmacia XXIV Giugno"},"bbox":[10.9469,45.4337,10.9469,45.4337]},{"type":"Feature","id":"sigi 188 farmacie.75","geometry":{"type":"Point","coordinates":[10.9755,45.4079]},"geometry_name":"geom","properties":{"farmacia":73,"denominazi":"Farmacia ZAI","chiave":"6151-12","indirizzo":"LARGO PERLAR 12,\r\n37135 Verona","omogenea":"Z.A.I. Borgo Roma","quartiere":"BORGO ROMA","circoscriz":"SUD","url_rel":"modulo3/oggetto.aspx?oggetto=farmacia&id_oggetto=73","tooltip":"73 Farmacia ZAI"},"bbox":[10.9755,45.4079,10.9755,45.4079]},{"type":"Feature","id":"sigi 188 farmacie.76","geometry":{"type":"Point","coordinates":[11.014,45.4323]},"geometry_name":"geom","properties":{"farmacia":78,"denominazi":"Farmacia Santa Caterina","chiave":"8983-25B","indirizzo":"VIA PALMINO E SILVINO STOPPELE 25B,\r\n37133 Verona","omogenea":"Porto S. Pancrazio - Centro","quartiere":"PORTO S. PANCRAZIO","circoscriz":"SUD-EST","url_rel":"modulo3/oggetto.aspx?oggetto=farmacia&id_oggetto=78","tooltip":"78 Farmacia Santa Caterina"},"bbox":[11.014,45.4323,11.014,45.4323]}],"totalFeatures":76,"numberMatched":76,"numberReturned":76,"timeStamp":"2021-07-27T12:57:36.178Z","crs":{"type":"name","properties":{"name":"urn:ogc:def:crs:EPSG::404000"}},"bbox":[10.8993,45.3824,11.0628,45.4965]}
